{"status":200,"success":true,"result":[{"name":"Bangor","state":"ME","address":"6 State St., Bangor, ME 04401 (Suite 314)","phone":"(207) 227-0196","lat":"44.802292","lon":"-68.770071","photo":"http://i.imgur.com/HmKi1PW.png","DaysHours":"","GOTVEvents":"","Notes":""},{"name":"Lewiston","state":"ME","address":"110 Lisbon St., Lewiston, ME 04240","phone":"(207) 650-9025","lat":"44.096876","lon":"-70.21732","photo":"http://i.imgur.com/Ldk9qxC.png","DaysHours":"","GOTVEvents":"","Notes":""},{"name":"Portland","state":"ME","address":"465 Congress St., Portland, ME 04101","phone":"(207) 956-3979","lat":"43.657448","lon":"-70.259479","photo":"http://i.imgur.com/4QVKdfj.png","DaysHours":"","GOTVEvents":"","Notes":""},{"name":"Ann Arbor","state":"MI","address":"4072 Packard Rd., Ann Arbor, MI 48108","phone":"-","lat":"42.24546","lon":"-83.679144","photo":"http://i.imgur.com/fkFMlYh.png","DaysHours":"Friday - Monday (3/4 - 3/7): 9am - 9pm\nTuesday (3/8 ELECTION DAY): 8am - 8pm","GOTVEvents":"","Notes":""},{"name":"Detroit","state":"MI","address":"7500 Oakland St., Detroit MI 48211","phone":"(201) 388-9887","lat":"42.375522","lon":"-83.065255","photo":"http://i.imgur.com/JsXJSjX.png","DaysHours":"Friday - Monday (3/4 - 3/7): 9am - 9pm\nTuesday (3/8 ELECTION DAY): 8am - 8pm","GOTVEvents":"","Notes":""},{"name":"Kalamazoo","state":"MI","address":"4038 N Westnedge Ave., Kalamazoo, MI 49094","phone":"(603) 998-4415","lat":"42.331313","lon":"-85.588239","photo":"http://i.imgur.com/iNNRnAE.png","DaysHours":"Friday - Monday (3/4 - 3/7): 9am - 9pm\nTuesday (3/8 ELECTION DAY): 8am - 8pm","GOTVEvents":"","Notes":""},{"name":"Lincoln","state":"NE","address":"211 N. 14th St., Lincoln, NE 68508","phone":"(480) 239-3889","lat":"40.814956","lon":"-96.701454","photo":"http://i.imgur.com/y1Gblem.png","DaysHours":"Thursday - Saturday (3/3 - 3/5): 10am - 10pm","GOTVEvents":"","Notes":""},{"name":"Omaha","state":"NE","address":"6004 Pine St., Omaha, NE 68106","phone":"(402) 880-4076","lat":"41.244322","lon":"-96.005219","photo":"http://i.imgur.com/SassxOP.png","DaysHours":"Thursday - Saturday (3/3 - 3/5): 10am - 10pm","GOTVEvents":"","Notes":""}]}